[{"obs_post_id":"SO_0577","obs_post_name":"가거도","lat":34.050833,"lng":125.128889},
{"obs_post_id":"DT_0019","obs_post_name":"가덕도","lat":35.024167,"lng":128.810833},
{"obs_post_id":"SO_0737","obs_post_name":"강구항","lat":36.358583,"lng":129.391306},
{"obs_post_id":"SO_0733","obs_post_name":"강릉항","lat":37.772278,"lng":128.951333},
{"obs_post_id":"SO_0581","obs_post_name":"강양항","lat":35.39,"lng":129.344722},
{"obs_post_id":"DT_0032","obs_post_name":"강화대교","lat":37.73194444,"lng":126.5222222},
{"obs_post_id":"SO_0539","obs_post_name":"강화외포","lat":37.700833,"lng":126.3725},
{"obs_post_id":"DT_0031","obs_post_name":"거문도","lat":34.028333,"lng":127.308889},
{"obs_post_id":"DT_0029","obs_post_name":"거제도","lat":34.801389,"lng":128.699167},
{"obs_post_id":"SO_0571","obs_post_name":"거제외포","lat":34.939444,"lng":128.718056},
{"obs_post_id":"DT_0058","obs_post_name":"경인항","lat":37.560833,"lng":126.601111},
{"obs_post_id":"SO_0552","obs_post_name":"고현항","lat":34.901944,"lng":128.622222},
{"obs_post_id":"DT_0026","obs_post_name":"고흥발포","lat":34.481111,"lng":127.342778},
{"obs_post_id":"SO_0570","obs_post_name":"광암항","lat":35.1025,"lng":128.498889},
{"obs_post_id":"DT_0049","obs_post_name":"광양","lat":34.903672,"lng":127.754836},
{"obs_post_id":"DT_0042","obs_post_name":"교본초","lat":34.70472222,"lng":128.3063889},
{"obs_post_id":"SO_0564","obs_post_name":"국화도","lat":37.060556,"lng":126.560556},
{"obs_post_id":"DT_0018","obs_post_name":"군산","lat":35.975556,"lng":126.563056},
{"obs_post_id":"DT_0038","obs_post_name":"굴업도","lat":37.194444,"lng":125.995},
{"obs_post_id":"SO_0734","obs_post_name":"궁촌항","lat":37.327806,"lng":129.270028},
{"obs_post_id":"SO_0550","obs_post_name":"나로도","lat":34.463056,"lng":127.453889},
{"obs_post_id":"SO_0732","obs_post_name":"남애항","lat":37.944222,"lng":128.788333},
{"obs_post_id":"SO_0569","obs_post_name":"남포항","lat":34.957778,"lng":128.321667},
{"obs_post_id":"NS_0003","obs_post_name":"녹동","lat":34.52702778,"lng":127.1345278},
{"obs_post_id":"SO_0712","obs_post_name":"능양항","lat":34.812222,"lng":128.245},
{"obs_post_id":"DT_0017","obs_post_name":"대산","lat":37.0075,"lng":126.352778},
{"obs_post_id":"SO_0731","obs_post_name":"대진항","lat":38.501389,"lng":128.426167},
{"obs_post_id":"DT_0036","obs_post_name":"대청도","lat":37.825222,"lng":124.718056},
{"obs_post_id":"SO_0536","obs_post_name":"덕적도","lat":37.227778,"lng":126.157778},
{"obs_post_id":"DT_0047","obs_post_name":"도농탄","lat":33.158056,"lng":126.274722},
{"obs_post_id":"SO_0739","obs_post_name":"도장항","lat":34.367306,"lng":127.011972},
{"obs_post_id":"DT_0040","obs_post_name":"독도","lat":37.238889,"lng":131.867222},
{"obs_post_id":"DT_0057","obs_post_name":"동해항","lat":37.494722,"lng":129.143889},
{"obs_post_id":"SO_0709","obs_post_name":"두문포","lat":34.643611,"lng":127.7975},
{"obs_post_id":"SO_0703","obs_post_name":"땅끝항","lat":34.298889,"lng":126.531111},
{"obs_post_id":"SO_0705","obs_post_name":"마량항","lat":34.448889,"lng":126.821944},
{"obs_post_id":"DT_0015","obs_post_name":"마산(구)","lat":35.21,"lng":128.588889},
{"obs_post_id":"SO_0547","obs_post_name":"말도","lat":35.855278,"lng":126.318333},
{"obs_post_id":"DT_0023","obs_post_name":"모슬포","lat":33.214444,"lng":126.251111},
{"obs_post_id":"DT_0007","obs_post_name":"목포","lat":34.779722,"lng":126.375556},
{"obs_post_id":"DT_0006","obs_post_name":"묵호","lat":37.550278,"lng":129.116389},
{"obs_post_id":"SO_0326","obs_post_name":"미조항","lat":34.706389,"lng":128.048611},
{"obs_post_id":"DT_0059","obs_post_name":"백령도","lat":37.95565,"lng":124.736081},
{"obs_post_id":"SO_0574","obs_post_name":"백사장항","lat":36.586389,"lng":126.315},
{"obs_post_id":"SO_0568","obs_post_name":"백야도","lat":34.624444,"lng":127.632222},
{"obs_post_id":"SO_0537","obs_post_name":"벽파진","lat":34.539444,"lng":126.346111},
{"obs_post_id":"DT_0025","obs_post_name":"보령","lat":36.406389,"lng":126.486111},
{"obs_post_id":"SO_0740","obs_post_name":"보옥항","lat":34.129,"lng":126.513556},
{"obs_post_id":"DT_0041","obs_post_name":"복사초","lat":34.09833333,"lng":126.1683333},
{"obs_post_id":"SO_0710","obs_post_name":"봉우항","lat":34.932778,"lng":127.9275},
{"obs_post_id":"DT_0005","obs_post_name":"부산","lat":35.096389,"lng":129.035278},
{"obs_post_id":"DT_0056","obs_post_name":"부산항신항","lat":35.0775,"lng":128.786944},
{"obs_post_id":"DT_0061","obs_post_name":"삼천포","lat":34.924167,"lng":128.069722},
{"obs_post_id":"SO_0543","obs_post_name":"서거차도","lat":34.253611,"lng":125.917778},
{"obs_post_id":"DT_0010","obs_post_name":"서귀포","lat":33.24,"lng":126.561667},
{"obs_post_id":"SO_0555","obs_post_name":"서망항","lat":34.366667,"lng":126.134167},
{"obs_post_id":"DT_0051","obs_post_name":"서천마량","lat":36.12888889,"lng":126.4952778},
{"obs_post_id":"DT_0022","obs_post_name":"성산포","lat":33.474722,"lng":126.927778},
{"obs_post_id":"SO_0578","obs_post_name":"소매물도","lat":34.621944,"lng":128.548056},
{"obs_post_id":"SO_0704","obs_post_name":"소안항","lat":34.15,"lng":126.631944},
{"obs_post_id":"DT_0012","obs_post_name":"속초","lat":38.207222,"lng":128.594167},
{"obs_post_id":"DT_0048","obs_post_name":"속초등표","lat":38.199478,"lng":128.613083},
{"obs_post_id":"SO_0566","obs_post_name":"송공항","lat":34.848333,"lng":126.225278},
{"obs_post_id":"NS_0017","obs_post_name":"순lat","lat":37.75,"lng":125.3333333},
{"obs_post_id":"SO_0567","obs_post_name":"쉬미항","lat":34.504722,"lng":126.183611},
{"obs_post_id":"SO_0562","obs_post_name":"승봉도","lat":37.169722,"lng":126.290556},
{"obs_post_id":"SO_0707","obs_post_name":"시산항","lat":34.394444,"lng":127.261667},
{"obs_post_id":"SO_0576","obs_post_name":"시하도","lat":34.661111,"lng":126.256944},
{"obs_post_id":"IE_0061","obs_post_name":"신안가거초","lat":33.941944,"lng":124.592778},
{"obs_post_id":"DT_0046","obs_post_name":"쌍정초","lat":37.556161,"lng":130.939211},
{"obs_post_id":"SO_0708","obs_post_name":"안도항","lat":34.479722,"lng":127.797778},
{"obs_post_id":"SO_0538","obs_post_name":"안마도","lat":35.345556,"lng":126.016111},
{"obs_post_id":"DT_0008","obs_post_name":"안산","lat":37.192222,"lng":126.647222},
{"obs_post_id":"DT_0034","obs_post_name":"안흥","lat":36.673611,"lng":126.132222},
{"obs_post_id":"SO_0573","obs_post_name":"양포항","lat":35.881389,"lng":129.5275},
{"obs_post_id":"DT_0037","obs_post_name":"어청도","lat":36.117222,"lng":125.984722},
{"obs_post_id":"SO_0551","obs_post_name":"여서도","lat":33.988056,"lng":126.923333},
{"obs_post_id":"DT_0016","obs_post_name":"여수","lat":34.747222,"lng":127.765556},
{"obs_post_id":"SO_0738","obs_post_name":"여호항","lat":34.661556,"lng":127.469556},
{"obs_post_id":"DT_0060","obs_post_name":"연평도","lat":37.657669,"lng":125.714417},
{"obs_post_id":"DT_0003","obs_post_name":"영광","lat":35.426111,"lng":126.420556},
{"obs_post_id":"DT_0044","obs_post_name":"영종대교","lat":37.54555556,"lng":126.5844444},
{"obs_post_id":"SO_0554","obs_post_name":"영종왕산","lat":37.458056,"lng":126.358889},
{"obs_post_id":"DT_0043","obs_post_name":"영흥도","lat":37.23861111,"lng":126.4286111},
{"obs_post_id":"SO_0702","obs_post_name":"옥도","lat":34.350833,"lng":126.018611},
{"obs_post_id":"IE_0062","obs_post_name":"옹진소청초","lat":37.423056,"lng":124.738056},
{"obs_post_id":"DT_0027","obs_post_name":"완도","lat":34.315556,"lng":126.759722},
{"obs_post_id":"DT_0039","obs_post_name":"왕돌초","lat":36.71916667,"lng":129.7325},
{"obs_post_id":"SO_0548","obs_post_name":"우이도","lat":34.620556,"lng":125.856667},
{"obs_post_id":"SO_0563","obs_post_name":"울도","lat":37.035556,"lng":125.995},
{"obs_post_id":"DT_0013","obs_post_name":"울릉도","lat":37.491389,"lng":130.913611},
{"obs_post_id":"DT_0020","obs_post_name":"울산","lat":35.501944,"lng":129.387222},
{"obs_post_id":"ET_0013","obs_post_name":"원산","lat":39.366667,"lng":127.45},
{"obs_post_id":"DT_0030","obs_post_name":"lat","lat":35.618056,"lng":126.301667},
{"obs_post_id":"SO_0572","obs_post_name":"읍천항","lat":35.690833,"lng":129.475556},
{"obs_post_id":"IE_0060","obs_post_name":"이어도","lat":32.12277778,"lng":125.1822222},
{"obs_post_id":"DT_0001","obs_post_name":"인천","lat":37.451944,"lng":126.592222},
{"obs_post_id":"DT_0052","obs_post_name":"인천송도","lat":37.33805556,"lng":126.5861111},
{"obs_post_id":"DT_0024","obs_post_name":"장항","lat":36.006944,"lng":126.6875},
{"obs_post_id":"DT_0004","obs_post_name":"제주","lat":33.5275,"lng":126.543056},
{"obs_post_id":"SO_0735","obs_post_name":"죽변항","lat":37.054833,"lng":129.423917},
{"obs_post_id":"DT_0028","obs_post_name":"진도","lat":34.377778,"lng":126.308611},
{"obs_post_id":"DT_0054","obs_post_name":"진해","lat":35.147222,"lng":128.643056},
{"obs_post_id":"SO_0711","obs_post_name":"창선도","lat":34.840556,"lng":128.019444},
{"obs_post_id":"SO_0699","obs_post_name":"천리포항","lat":36.803889,"lng":126.146944},
{"obs_post_id":"SO_0706","obs_post_name":"청산도","lat":34.180833,"lng":126.856111},
{"obs_post_id":"SO_0549","obs_post_name":"초도","lat":34.240556,"lng":127.245278},
{"obs_post_id":"DT_0021","obs_post_name":"추자도","lat":33.961944,"lng":126.300278},
{"obs_post_id":"SO_0736","obs_post_name":"축산항","lat":36.509944,"lng":129.448139},
{"obs_post_id":"DT_0050","obs_post_name":"태안","lat":36.91305556,"lng":126.2388889},
{"obs_post_id":"DT_0014","obs_post_name":"통영","lat":34.827778,"lng":128.434722},
{"obs_post_id":"DT_0002","obs_post_name":"평택","lat":36.966944,"lng":126.822778},
{"obs_post_id":"DT_0901","obs_post_name":"포항","lat":36.051581,"lng":129.374499},
{"obs_post_id":"SO_0553","obs_post_name":"해운대","lat":35.16027778,"lng":129.1915},
{"obs_post_id":"SO_0565","obs_post_name":"향화도항","lat":35.167778,"lng":126.359444},
{"obs_post_id":"SO_0700","obs_post_name":"호도","lat":36.303889,"lng":126.264722},
{"obs_post_id":"SO_0540","obs_post_name":"호산항","lat":37.176111,"lng":129.342778},
{"obs_post_id":"SO_0701","obs_post_name":"홍도항","lat":34.681111,"lng":125.195},
{"obs_post_id":"DT_0011","obs_post_name":"후포","lat":36.6775,"lng":129.453056},
{"obs_post_id":"DT_0035","obs_post_name":"흑산도","lat":34.684167,"lng":125.435556}]