[{"obs_post_id":"DT_0001","obs_post_name":"인천","lng":126.5921,"lat":37.45198},
{"obs_post_id":"DT_0002","obs_post_name":"평택","lng":126.8227,"lat":36.96686},
{"obs_post_id":"DT_0003","obs_post_name":"영광","lng":126.4207,"lat":35.42616},
{"obs_post_id":"DT_0004","obs_post_name":"제주","lng":126.5432,"lat":33.52748},
{"obs_post_id":"DT_0005","obs_post_name":"부산","lng":129.0354,"lat":35.09628},
{"obs_post_id":"DT_0006","obs_post_name":"묵호","lng":129.1163,"lat":37.55036},
{"obs_post_id":"DT_0007","obs_post_name":"목포","lng":126.3756,"lat":34.77976},
{"obs_post_id":"DT_0008","obs_post_name":"안산","lng":126.6472,"lat":37.19222},
{"obs_post_id":"DT_0901","obs_post_name":"포항","lng":129.3838,"lat":36.04713},
{"obs_post_id":"DT_0010","obs_post_name":"서귀포","lng":126.5616,"lat":33.23995},
{"obs_post_id":"DT_0011","obs_post_name":"후포","lng":129.4532,"lat":36.67756},
{"obs_post_id":"DT_0012","obs_post_name":"속초","lng":128.5941,"lat":38.20709},
{"obs_post_id":"DT_0013","obs_post_name":"울릉도","lng":130.9137,"lat":37.4915},
{"obs_post_id":"DT_0014","obs_post_name":"통영","lng":128.4347,"lat":34.82768},
{"obs_post_id":"DT_0015","obs_post_name":"마산","lng":128.5889,"lat":35.21},
{"obs_post_id":"DT_0016","obs_post_name":"여수","lng":127.7656,"lat":34.74722},
{"obs_post_id":"DT_0017","obs_post_name":"대산","lng":126.3528,"lat":37.0075},
{"obs_post_id":"DT_0018","obs_post_name":"군산","lng":126.5631,"lat":35.97549},
{"obs_post_id":"DT_0019","obs_post_name":"가덕도","lng":128.8109,"lat":35.02418},
{"obs_post_id":"DT_0020","obs_post_name":"울산","lng":129.3872,"lat":35.50183},
{"obs_post_id":"DT_0021","obs_post_name":"추자도","lng":126.3001,"lat":33.96183},
{"obs_post_id":"DT_0022","obs_post_name":"성산포","lng":126.9277,"lat":33.47472},
{"obs_post_id":"DT_0023","obs_post_name":"모슬포","lng":126.2512,"lat":33.21433},
{"obs_post_id":"DT_0024","obs_post_name":"장항","lng":126.6875,"lat":36.00694},
{"obs_post_id":"DT_0025","obs_post_name":"보령","lng":126.4861,"lat":36.40639},
{"obs_post_id":"DT_0026","obs_post_name":"고흥발포","lng":127.3427,"lat":34.48112},
{"obs_post_id":"DT_0027","obs_post_name":"완도","lng":126.7596,"lat":34.31551},
{"obs_post_id":"DT_0028","obs_post_name":"진도","lng":126.3086,"lat":34.37769},
{"obs_post_id":"DT_0029","obs_post_name":"거제도","lng":128.6992,"lat":34.80151},
{"obs_post_id":"DT_0030","obs_post_name":"lng","lng":126.3017,"lat":35.61806},
{"obs_post_id":"DT_0031","obs_post_name":"거문도","lng":127.3089,"lat":34.02843},
{"obs_post_id":"DT_0032","obs_post_name":"강화대교","lng":126.5222,"lat":37.73194},
{"obs_post_id":"DT_0034","obs_post_name":"안흥","lng":126.1322,"lat":36.67366},
{"obs_post_id":"DT_0035","obs_post_name":"흑산도","lng":125.4356,"lat":34.68417},
{"obs_post_id":"DT_0037","obs_post_name":"어청도","lng":125.9848,"lat":36.11729},
{"obs_post_id":"DT_0038","obs_post_name":"굴업도","lng":126,"lat":37.19457},
{"obs_post_id":"DT_0039","obs_post_name":"왕돌초","lng":129.7325,"lat":36.71903},
{"obs_post_id":"DT_0041","obs_post_name":"복사초","lng":126.1683,"lat":34.09846},
{"obs_post_id":"DT_0042","obs_post_name":"교본초","lng":128.3064,"lat":34.70472},
{"obs_post_id":"DT_0043","obs_post_name":"영흥도","lng":126.4286,"lat":37.23861},
{"obs_post_id":"DT_0044","obs_post_name":"영종대교","lng":126.5845,"lat":37.5455},
{"obs_post_id":"DT_0049","obs_post_name":"광양","lng":127.7548,"lat":34.90367},
{"obs_post_id":"DT_0050","obs_post_name":"태안","lng":126.2389,"lat":36.91306},
{"obs_post_id":"DT_0051","obs_post_name":"서천마량","lng":126.4953,"lat":36.12889},
{"obs_post_id":"DT_0052","obs_post_name":"인천송도","lng":126.586,"lat":37.33819},
{"obs_post_id":"DT_0056","obs_post_name":"부산항신항","lng":128.7869,"lat":35.0775},
{"obs_post_id":"DT_0057","obs_post_name":"동해항","lng":129.1439,"lat":37.49472},
{"obs_post_id":"DT_0058","obs_post_name":"경인항","lng":126.6011,"lat":37.56083},
{"obs_post_id":"DT_0061","obs_post_name":"삼천포","lng":128.0697,"lat":34.92406},
{"obs_post_id":"IE_0060","obs_post_name":"이어도","lng":125.1825,"lat":32.12306},
{"obs_post_id":"IE_0061","obs_post_name":"신안가거초","lng":124.5928,"lat":33.94193},
{"obs_post_id":"IE_0062","obs_post_name":"옹진소청초","lng":124.738,"lat":37.42318}]